{
  "regions": [
    {
      "name": "Благоевград",
      "municipalities": [
        {
          "name": "Банско",
          "towns": [
            {
              "id": "2676",
              "name": "Банско",
              "type": "гр.",
              "townHall": "Банско",
              "phoneCode": "07443",
              "latitude": 41.8404,
              "longitude": 23.4857,
              "postCodes": [
                "2770"
              ]
            },
            {
              "id": "17381",
              "name": "Гостун",
              "type": "с.",
              "townHall": "Гостун",
              "phoneCode": "074409",
              "latitude": 41.7973,
              "longitude": 23.6904,
              "postCodes": [
                "2773"
              ]
            },
            {
              "id": "21498",
              "name": "Добринище",
              "type": "с.",
              "townHall": "Добринище",
              "phoneCode": "07447",
              "latitude": 41.8202,
              "longitude": 23.5593,
              "postCodes": [
                "2777"
              ]
            },
            {
              "id": "39614",
              "name": "Кремен",
              "type": "с.",
              "townHall": "Кремен",
              "phoneCode": "074407",
              "latitude": 41.745,
              "longitude": 23.6385,
              "postCodes": [
                "2771"
              ]
            },
            {
              "id": "47857",
              "name": "Места",
              "type": "с.",
              "townHall": "Места",
              "phoneCode": "074409",
              "latitude": 41.7614,
              "longitude": 23.6729,
              "postCodes": [
                "2772"
              ]
            },
            {
              "id": "53059",
              "name": "Обидим",
              "type": "с.",
              "townHall": "Обидим",
              "phoneCode": "074408",
              "latitude": 41.7875,
              "longitude": 23.6407,
              "postCodes": [
                "2776"
              ]
            },
            {
              "id": "54136",
              "name": "Осеново",
              "type": "с.",
              "townHall": "Осеново",
              "phoneCode": "074409",
              "latitude": 41.7784,
              "longitude": 23.7255,
              "postCodes": [
                "2774"
              ]
            },
            {
              "id": "76090",
              "name": "Филипово",
              "type": "с.",
              "townHall": "Филипово",
              "phoneCode": "074409",
              "latitude": 41.7639,
              "longitude": 23.6828,
              "postCodes": [
                "2775"
              ]
            }
          ]
        },
        {
          "name": "Белица",
          "towns": [
            {
              "id": "2107",
              "name": "Бабяк",
              "type": "с.",
              "townHall": "Бабяк",
              "phoneCode": "074404",
              "latitude": 41.9552,
              "longitude": 23.6815,
              "postCodes": [
                "2784"
              ]
            },
            {
              "id": "3504",
              "name": "Белица",
              "type": "гр.",
              "townHall": "Белица",
              "phoneCode": "07444",
              "latitude": 41.9508,
              "longitude": 23.5592,
              "postCodes": [
                "2780"
              ]
            },
            {
              "id": "41068",
              "name": "Върхари",
              "type": "с.",
              "townHall": "Златарица",
              "phoneCode": "",
              "latitude": 41.5433,
              "longitude": 25.3796,
              "postCodes": [
                "2786"
              ]
            },
            {
              "id": "77596",
              "name": "Горно Краище",
              "type": "с.",
              "townHall": "Горно Краище",
              "phoneCode": "074405",
              "latitude": 41.9007,
              "longitude": 23.5898,
              "postCodes": [
                "2781"
              ]
            },
            {
              "id": "15638",
              "name": "Гълъбово",
              "type": "с.",
              "townHall": "Гълъбово",
              "phoneCode": "074404",
              "latitude": 42.1358,
              "longitude": 25.8651,
              "postCodes": [
                "2789"
              ]
            },
            {
              "id": "20064",
              "name": "Дагоново",
              "type": "с.",
              "townHall": "Дагоново",
              "phoneCode": "074406",
              "latitude": 41.9544,
              "longitude": 23.5953,
              "postCodes": [
                "2779"
              ]
            },
            {
              "id": "27293",
              "name": "Елешница",
              "type": "с.",
              "townHall": "Елешница",
              "phoneCode": "07446",
              "latitude": 41.8643,
              "longitude": 23.6167,
              "postCodes": [
                "2782"
              ]
            },
            {
              "id": "14521",
              "name": "Златарица",
              "type": "с.",
              "townHall": "Златарица",
              "phoneCode": "",
              "latitude": 43.0496,
              "longitude": 25.8927,
              "postCodes": [
                "2783"
              ]
            },
            {
              "id": "39270",
              "name": "Краище",
              "type": "с.",
              "townHall": "Краище",
              "phoneCode": "074405",
              "latitude": 41.9217,
              "longitude": 23.5883,
              "postCodes": [
                "2781"
              ]
            },
            {
              "id": "40453",
              "name": "Кузьово",
              "type": "с.",
              "townHall": "Кузьово",
              "phoneCode": "074404",
              "latitude": 41.9387,
              "longitude": 23.6563,
              "postCodes": [
                "2788"
              ]
            },
            {
              "id": "44762",
              "name": "Лютово",
              "type": "с.",
              "townHall": "Лютово",
              "phoneCode": "074404",
              "latitude": 41.9465,
              "longitude": 23.6319,
              "postCodes": [
                "2791"
              ]
            },
            {
              "id": "53998",
              "name": "Орцево",
              "type": "с.",
              "townHall": "Орцево",
              "phoneCode": "074404",
              "latitude": 41.9669,
              "longitude": 23.7377,
              "postCodes": [
                "2785"
              ]
            },
            {
              "id": "59330",
              "name": "Палатник",
              "type": "с.",
              "townHall": "Палатник",
              "phoneCode": "",
              "latitude": 41.9111,
              "longitude": 23.6717,
              "postCodes": [
                "2788"
              ]
            },
            {
              "id": "80649",
              "name": "Черешово",
              "type": "с.",
              "townHall": "Черешово",
              "phoneCode": "074404",
              "latitude": 41.9491,
              "longitude": 23.7086,
              "postCodes": [
                "2787"
              ]
            }
          ]
        },
        {
          "name": "Благоевград",
          "towns": [
            {
              "id": "3664",
              "name": "Бело поле",
              "type": "с.",
              "townHall": "Бело поле",
              "phoneCode": "",
              "latitude": 42.0319,
              "longitude": 23.0473,
              "postCodes": [
                "2709"
              ]
            },
            {
              "id": "4217",
              "name": "Бистрица",
              "type": "с.",
              "townHall": "Бистрица",
              "phoneCode": "",
              "latitude": 42.0548,
              "longitude": 23.1801,
              "postCodes": [
                "2724"
              ]
            },
            {
              "id": "4279",
              "name": "Благоевград",
              "type": "гр.",
              "townHall": "Благоевград",
              "phoneCode": "073",
              "latitude": 42.0209,
              "longitude": 23.0943,
              "postCodes": [
                "2700",
                "2702",
                "2703",
                "2704"
              ]
            },
            {
              "id": "7168",
              "name": "Бучино",
              "type": "с.",
              "townHall": "Бучино",
              "phoneCode": "",
              "latitude": 42.0462,
              "longitude": 23.0229,
              "postCodes": [
                "2742"
              ]
            },
            {
              "id": "7377",
              "name": "Българчево",
              "type": "с.",
              "townHall": "Българчево",
              "phoneCode": "07415",
              "latitude": 42.0241,
              "longitude": 23.0325,
              "postCodes": [
                "2746"
              ]
            },
            {
              "id": "14204",
              "name": "Габрово",
              "type": "с.",
              "townHall": "Габрово",
              "phoneCode": "07414",
              "latitude": 41.8979,
              "longitude": 22.9435,
              "postCodes": [
                "2747"
              ]
            },
            {
              "id": "17004",
              "name": "Горно Хърсово",
              "type": "с.",
              "townHall": "Горно Хърсово",
              "phoneCode": "073",
              "latitude": 42.0179,
              "longitude": 23.1788,
              "postCodes": [
                "2727"
              ]
            },
            {
              "id": "20328",
              "name": "Дебочица",
              "type": "с.",
              "townHall": "Дебочица",
              "phoneCode": "07414",
              "latitude": 41.8683,
              "longitude": 22.9537,
              "postCodes": [
                "2748"
              ]
            },
            {
              "id": "20540",
              "name": "Делвино",
              "type": "с.",
              "townHall": "Марулево",
              "phoneCode": "073",
              "latitude": 42.0212,
              "longitude": 23.1332,
              "postCodes": [
                "2728"
              ]
            },
            {
              "id": "23652",
              "name": "Дренково",
              "type": "с.",
              "townHall": "Дренково",
              "phoneCode": "07418",
              "latitude": 42.0253,
              "longitude": 22.9315,
              "postCodes": [
                "2739"
              ]
            },
            {
              "id": "24367",
              "name": "Дъбрава",
              "type": "с.",
              "townHall": "Дъбрава",
              "phoneCode": "073",
              "latitude": 42.0484,
              "longitude": 23.1318,
              "postCodes": [
                "2723"
              ]
            },
            {
              "id": "27231",
              "name": "Еленово",
              "type": "с.",
              "townHall": "Еленово",
              "phoneCode": "073",
              "latitude": 42.001,
              "longitude": 23.1274,
              "postCodes": [
                "2726"
              ]
            },
            {
              "id": "30702",
              "name": "Зелендол",
              "type": "с.",
              "townHall": "Зелендол",
              "phoneCode": "07415",
              "latitude": 42.0093,
              "longitude": 23.0319,
              "postCodes": [
                "2745"
              ]
            },
            {
              "id": "134",
              "name": "Изгрев",
              "type": "с.",
              "townHall": "Изгрев",
              "phoneCode": "073",
              "latitude": 42.0018,
              "longitude": 23.1056,
              "postCodes": [
                "2711"
              ]
            },
            {
              "id": "37263",
              "name": "Клисура",
              "type": "с.",
              "townHall": "Клисура",
              "phoneCode": "07418",
              "latitude": 42.0096,
              "longitude": 22.9161,
              "postCodes": [
                "2738"
              ]
            },
            {
              "id": "43520",
              "name": "Лешко",
              "type": "с.",
              "townHall": "Лешко",
              "phoneCode": "07414",
              "latitude": 41.9325,
              "longitude": 22.9752,
              "postCodes": [
                "2749"
              ]
            },
            {
              "id": "43863",
              "name": "Лисия",
              "type": "с.",
              "townHall": "Бучино",
              "phoneCode": "073",
              "latitude": 42.0618,
              "longitude": 22.9366,
              "postCodes": [
                "2743"
              ]
            },
            {
              "id": "68792",
              "name": "Логодаж",
              "type": "с.",
              "townHall": "Логодаж",
              "phoneCode": "07418",
              "latitude": 41.9927,
              "longitude": 22.934,
              "postCodes": [
                "2737"
              ]
            },
            {
              "id": "47370",
              "name": "Марулево",
              "type": "с.",
              "townHall": "Марулево",
              "phoneCode": "",
              "latitude": 41.995,
              "longitude": 23.1512,
              "postCodes": [
                "2725"
              ]
            },
            {
              "id": "49179",
              "name": "Мощанец",
              "type": "с.",
              "townHall": "Мощанец",
              "phoneCode": "073",
              "latitude": 41.9668,
              "longitude": 23.0727,
              "postCodes": [
                "2729"
              ]
            },
            {
              "id": "53031",
              "name": "Обел",
              "type": "с.",
              "townHall": "Клисура",
              "phoneCode": "",
              "latitude": 41.9747,
              "longitude": 22.9092,
              "postCodes": [
                "2738"
              ]
            },
            {
              "id": "55107",
              "name": "Падеш",
              "type": "с.",
              "townHall": "Падеш",
              "phoneCode": "07414",
              "latitude": 41.9317,
              "longitude": 23.0022,
              "postCodes": [
                "2747"
              ]
            },
            {
              "id": "57159",
              "name": "Покровник",
              "type": "с.",
              "townHall": "Покровник",
              "phoneCode": "073",
              "latitude": 41.9759,
              "longitude": 23.0529,
              "postCodes": [
                "2708"
              ]
            },
            {
              "id": "62699",
              "name": "Рилци",
              "type": "с.",
              "townHall": "Рилци",
              "phoneCode": "073",
              "latitude": 42.0401,
              "longitude": 23.0656,
              "postCodes": [
                "2710"
              ]
            },
            {
              "id": "66055",
              "name": "Селище",
              "type": "с.",
              "townHall": "Селище",
              "phoneCode": "07413",
              "latitude": 41.9964,
              "longitude": 22.9988,
              "postCodes": [
                "2744"
              ]
            },
            {
              "id": "78464",
              "name": "Церово",
              "type": "с.",
              "townHall": "Церово",
              "phoneCode": "073",
              "latitude": 42.3578,
              "longitude": 24.0522,
              "postCodes": [
                "2722"
              ]
            }
          ]
        },
        {
          "name": "Гоце Делчев",
          "towns": [
            {
              "id": "2600",
              "name": "Баничан",
              "type": "с.",
              "townHall": "Баничан",
              "phoneCode": "07525",
              "latitude": 41.6207,
              "longitude": 23.7375,
              "postCodes": [
                "2905"
              ]
            },
            {
              "id": "5606",
              "name": "Борово",
              "type": "с.",
              "townHall": "Борово",
              "phoneCode": "0751",
              "latitude": 43.4842,
              "longitude": 25.8056,
              "postCodes": [
                "2904"
              ]
            },
            {
              "id": "6306",
              "name": "Брезница",
              "type": "с.",
              "townHall": "Брезница",
              "phoneCode": "07529",
              "latitude": 41.6714,
              "longitude": 23.6618,
              "postCodes": [
                "2972"
              ]
            },
            {
              "id": "7003",
              "name": "Буково",
              "type": "с.",
              "townHall": "Буково",
              "phoneCode": "07532",
              "latitude": 41.712,
              "longitude": 23.714,
              "postCodes": [
                "2915"
              ]
            },
            {
              "id": "17347",
              "name": "Господинци",
              "type": "с.",
              "townHall": "Господинци",
              "phoneCode": "07525",
              "latitude": 41.6579,
              "longitude": 23.7299,
              "postCodes": [
                "2914"
              ]
            },
            {
              "id": "17395",
              "name": "Гоце Делчев",
              "type": "гр.",
              "townHall": "Гоце Делчев",
              "phoneCode": "0751",
              "latitude": 41.5728,
              "longitude": 23.7283,
              "postCodes": [
                "2900"
              ]
            },
            {
              "id": "20585",
              "name": "Делчево",
              "type": "с.",
              "townHall": "Делчево",
              "phoneCode": "",
              "latitude": 41.5556,
              "longitude": 23.6968,
              "postCodes": [
                "2917"
              ]
            },
            {
              "id": "21680",
              "name": "Добротино",
              "type": "с.",
              "townHall": "Гоце Делчев",
              "phoneCode": "0751",
              "latitude": 41.5864,
              "longitude": 23.68,
              "postCodes": [
                "2919"
              ]
            },
            {
              "id": "23460",
              "name": "Драгостин",
              "type": "с.",
              "townHall": "Гоце Делчев",
              "phoneCode": "",
              "latitude": 41.5745,
              "longitude": 23.6973,
              "postCodes": [
                "2916"
              ]
            },
            {
              "id": "38666",
              "name": "Корница",
              "type": "с.",
              "townHall": "Корница",
              "phoneCode": "07520",
              "latitude": 41.64,
              "longitude": 23.6772,
              "postCodes": [
                "2970"
              ]
            },
            {
              "id": "44416",
              "name": "Лъжница",
              "type": "с.",
              "townHall": "Лъжница",
              "phoneCode": "07520",
              "latitude": 41.6191,
              "longitude": 23.677,
              "postCodes": [
                "2971"
              ]
            },
            {
              "id": "49432",
              "name": "Мусомища",
              "type": "с.",
              "townHall": "Мусомища",
              "phoneCode": "0751",
              "latitude": 41.5534,
              "longitude": 23.7476,
              "postCodes": [
                "2920"
              ]
            },
            {
              "id": "68391",
              "name": "Средна",
              "type": "с.",
              "townHall": "Гоце Делчев",
              "phoneCode": "",
              "latitude": 41.5806,
              "longitude": 23.6828,
              "postCodes": [
                "2918"
              ]
            }
          ]
        },
        {
          "name": "Гърмен",
          "towns": [
            {
              "id": "2381",
              "name": "Балдево",
              "type": "с.",
              "townHall": "Балдево",
              "phoneCode": "07523",
              "latitude": 41.6287,
              "longitude": 23.7695,
              "postCodes": [
                "2948"
              ]
            },
            {
              "id": "16763",
              "name": "Горно Дряново",
              "type": "с.",
              "townHall": "Горно Дряново",
              "phoneCode": "07527",
              "latitude": 41.6524,
              "longitude": 23.8267,
              "postCodes": [
                "2963"
              ]
            },
            {
              "id": "18366",
              "name": "Гърмен",
              "type": "с.",
              "townHall": "Гърмен",
              "phoneCode": "07523",
              "latitude": 41.5982,
              "longitude": 23.7986,
              "postCodes": [
                "2960"
              ]
            },
            {
              "id": "20331",
              "name": "Дебрен",
              "type": "с.",
              "townHall": "Дебрен",
              "phoneCode": "07523",
              "latitude": 41.5818,
              "longitude": 23.8229,
              "postCodes": [
                "2961"
              ]
            },
            {
              "id": "22616",
              "name": "Долно Дряново",
              "type": "с.",
              "townHall": "Долно Дряново",
              "phoneCode": "07531",
              "latitude": 41.5879,
              "longitude": 23.8955,
              "postCodes": [
                "2944"
              ]
            },
            {
              "id": "24267",
              "name": "Дъбница",
              "type": "с.",
              "townHall": "Дъбница",
              "phoneCode": "07522",
              "latitude": 41.5708,
              "longitude": 23.8342,
              "postCodes": [
                "2940"
              ]
            },
            {
              "id": "37472",
              "name": "Ковачевица",
              "type": "с.",
              "townHall": "Ковачевица",
              "phoneCode": "07527",
              "latitude": 41.6843,
              "longitude": 23.8264,
              "postCodes": [
                "2969"
              ]
            },
            {
              "id": "40138",
              "name": "Крушево",
              "type": "с.",
              "townHall": "Крушево",
              "phoneCode": "07531",
              "latitude": 41.602,
              "longitude": 23.8779,
              "postCodes": [
                "2945"
              ]
            },
            {
              "id": "43606",
              "name": "Лещен",
              "type": "с.",
              "townHall": "Горно Дряново",
              "phoneCode": "07527",
              "latitude": 41.6367,
              "longitude": 23.8289,
              "postCodes": [
                "2962"
              ]
            },
            {
              "id": "47408",
              "name": "Марчево",
              "type": "с.",
              "townHall": "Марчево",
              "phoneCode": "07523",
              "latitude": 41.6106,
              "longitude": 23.796,
              "postCodes": [
                "2949"
              ]
            },
            {
              "id": "53326",
              "name": "Огняново",
              "type": "с.",
              "townHall": "Огняново",
              "phoneCode": "07523",
              "latitude": 41.6121,
              "longitude": 23.7876,
              "postCodes": [
                "2947"
              ]
            },
            {
              "id": "53727",
              "name": "Ореше",
              "type": "с.",
              "townHall": "Ореше",
              "phoneCode": "07531",
              "latitude": 41.6231,
              "longitude": 23.8817,
              "postCodes": [
                "2943"
              ]
            },
            {
              "id": "54184",
              "name": "Осиково",
              "type": "с.",
              "townHall": "Осиково",
              "phoneCode": "07533",
              "latitude": 41.696,
              "longitude": 23.777,
              "postCodes": [
                "2965"
              ]
            },
            {
              "id": "62640",
              "name": "Рибново",
              "type": "с.",
              "townHall": "Рибново",
              "phoneCode": "07526",
              "latitude": 41.7184,
              "longitude": 23.7633,
              "postCodes": [
                "2967"
              ]
            },
            {
              "id": "66874",
              "name": "Скребатно",
              "type": "с.",
              "townHall": "Скребатно",
              "phoneCode": "07523",
              "latitude": 41.6602,
              "longitude": 23.797,
              "postCodes": [
                "2964"
              ]
            },
            {
              "id": "77222",
              "name": "Хвостяне",
              "type": "с.",
              "townHall": "Хвостяне",
              "phoneCode": "07522",
              "latitude": 41.5456,
              "longitude": 23.8474,
              "postCodes": [
                "2942"
              ]
            }
          ]
        },
        {
          "name": "Кресна",
          "towns": [
            {
              "id": "6834",
              "name": "Будилци",
              "type": "с.",
              "townHall": "Сливница",
              "phoneCode": "",
              "latitude": 41.6912,
              "longitude": 23.1194,
              "postCodes": [
                "2844"
              ]
            },
            {
              "id": "11569",
              "name": "Влахи",
              "type": "с.",
              "townHall": "Кресна",
              "phoneCode": "",
              "latitude": 41.7382,
              "longitude": 23.2309,
              "postCodes": [
                "2841"
              ]
            },
            {
              "id": "16136",
              "name": "Горна Брезница",
              "type": "с.",
              "townHall": "Горна Брезница",
              "phoneCode": "074328",
              "latitude": 41.7436,
              "longitude": 23.1162,
              "postCodes": [
                "2842"
              ]
            },
            {
              "id": "22068",
              "name": "Долна Градешница",
              "type": "с.",
              "townHall": "Долна Градешница",
              "phoneCode": "07433",
              "latitude": 41.6818,
              "longitude": 23.184,
              "postCodes": [
                "2843"
              ]
            },
            {
              "id": "27098",
              "name": "Езерец",
              "type": "с.",
              "townHall": "Ощава",
              "phoneCode": "",
              "latitude": 43.5949,
              "longitude": 28.5362,
              "postCodes": [
                "2846"
              ]
            },
            {
              "id": "14492",
              "name": "Кресна",
              "type": "гр.",
              "townHall": "Кресна",
              "phoneCode": "07433",
              "latitude": 41.7205,
              "longitude": 23.1664,
              "postCodes": [
                "2840"
              ]
            },
            {
              "id": "52163",
              "name": "Ново село",
              "type": "с.",
              "townHall": "Кресна",
              "phoneCode": "",
              "latitude": 41.7271,
              "longitude": 23.1675,
              "postCodes": [
                "2847"
              ]
            },
            {
              "id": "54537",
              "name": "Ощава",
              "type": "с.",
              "townHall": "Ощава",
              "phoneCode": "074337",
              "latitude": 41.7901,
              "longitude": 23.2267,
              "postCodes": [
                "2847"
              ]
            },
            {
              "id": "67369",
              "name": "Сливница",
              "type": "с.",
              "townHall": "Сливница",
              "phoneCode": "07433",
              "latitude": 41.6922,
              "longitude": 23.1653,
              "postCodes": [
                "2844"
              ]
            },
            {
              "id": "39699",
              "name": "Стара Кресна",
              "type": "с.",
              "townHall": "Стара Кресна",
              "phoneCode": "074337",
              "latitude": 41.7898,
              "longitude": 23.181,
              "postCodes": [
                "2845"
              ]
            }
          ]
        },
        {
          "name": "Петрич",
          "towns": [
            {
              "id": "2806",
              "name": "Баскалци",
              "type": "с.",
              "townHall": "Баскалци",
              "phoneCode": "",
              "latitude": 41.4749,
              "longitude": 23.0068,
              "postCodes": [
                "2883"
              ]
            },
            {
              "id": "3294",
              "name": "Беласица",
              "type": "с.",
              "townHall": "Беласица",
              "phoneCode": "07423",
              "latitude": 41.3662,
              "longitude": 23.1346,
              "postCodes": [
                "2881"
              ]
            },
            {
              "id": "66322",
              "name": "Богородица",
              "type": "с.",
              "townHall": "Богородица",
              "phoneCode": "07424",
              "latitude": 41.5111,
              "longitude": 23.1901,
              "postCodes": [
                "2876"
              ]
            },
            {
              "id": "5596",
              "name": "Боровичене",
              "type": "с.",
              "townHall": "Боровичене",
              "phoneCode": "074204",
              "latitude": 41.4172,
              "longitude": 23.0087,
              "postCodes": [
                "2884"
              ]
            },
            {
              "id": "11358",
              "name": "Вишлене",
              "type": "с.",
              "townHall": "Вишлене",
              "phoneCode": "07427",
              "latitude": 41.4383,
              "longitude": 23.0627,
              "postCodes": [
                "2895"
              ]
            },
            {
              "id": "12036",
              "name": "Волно",
              "type": "с.",
              "townHall": "Волно",
              "phoneCode": "",
              "latitude": 41.4794,
              "longitude": 23.0269,
              "postCodes": [
                "2886"
              ]
            },
            {
              "id": "14091",
              "name": "Габрене",
              "type": "с.",
              "townHall": "Габрене",
              "phoneCode": "07428",
              "latitude": 41.3678,
              "longitude": 22.973,
              "postCodes": [
                "2898"
              ]
            },
            {
              "id": "14581",
              "name": "Гега",
              "type": "с.",
              "townHall": "Гега",
              "phoneCode": "074204",
              "latitude": 41.4501,
              "longitude": 23.0038,
              "postCodes": [
                "2882"
              ]
            },
            {
              "id": "58390",
              "name": "Генерал Тодоров",
              "type": "с.",
              "townHall": "Генерал Тодоров",
              "phoneCode": "074207",
              "latitude": 41.4549,
              "longitude": 23.2868,
              "postCodes": [
                "2873"
              ]
            },
            {
              "id": "17302",
              "name": "Горчево",
              "type": "с.",
              "townHall": "Долене",
              "phoneCode": "",
              "latitude": 41.451,
              "longitude": 23.0276,
              "postCodes": [
                "2882"
              ]
            },
            {
              "id": "18472",
              "name": "Гюргево",
              "type": "с.",
              "townHall": "Дреново",
              "phoneCode": "",
              "latitude": 41.4752,
              "longitude": 23.1521,
              "postCodes": [
                "2875"
              ]
            },
            {
              "id": "21885",
              "name": "Долене",
              "type": "с.",
              "townHall": "Долене",
              "phoneCode": "074204",
              "latitude": 41.4462,
              "longitude": 23.0306,
              "postCodes": [
                "2887"
              ]
            },
            {
              "id": "22143",
              "name": "Долна Крушица",
              "type": "с.",
              "townHall": "Долна Крушица",
              "phoneCode": "074204",
              "latitude": 41.4248,
              "longitude": 22.984,
              "postCodes": [
                "2888"
              ]
            },
            {
              "id": "22246",
              "name": "Долна Рибница",
              "type": "с.",
              "townHall": "Долна Рибница",
              "phoneCode": "074277",
              "latitude": 41.4482,
              "longitude": 23.0957,
              "postCodes": [
                "2892"
              ]
            },
            {
              "id": "22842",
              "name": "Долно Спанчево",
              "type": "с.",
              "townHall": "Долно Спанчево",
              "phoneCode": "07425",
              "latitude": 41.4232,
              "longitude": 23.3798,
              "postCodes": [
                "2869"
              ]
            },
            {
              "id": "23488",
              "name": "Драгуш",
              "type": "с.",
              "townHall": "Драгуш",
              "phoneCode": "07424",
              "latitude": 41.5174,
              "longitude": 23.0916,
              "postCodes": [
                "2875"
              ]
            },
            {
              "id": "23563",
              "name": "Дрангово",
              "type": "с.",
              "townHall": "Дрангово",
              "phoneCode": "074208",
              "latitude": 41.4164,
              "longitude": 23.2874,
              "postCodes": [
                "2859"
              ]
            },
            {
              "id": "23683",
              "name": "Дреновица",
              "type": "с.",
              "townHall": "Вишлене",
              "phoneCode": "",
              "latitude": 41.4141,
              "longitude": 23.0708,
              "postCodes": [
                "2895"
              ]
            },
            {
              "id": "23697",
              "name": "Дреново",
              "type": "с.",
              "townHall": "Дреново",
              "phoneCode": "07424",
              "latitude": 41.5107,
              "longitude": 23.1568,
              "postCodes": [
                "2876"
              ]
            },
            {
              "id": "30315",
              "name": "Занога",
              "type": "с.",
              "townHall": "Драгуш",
              "phoneCode": "",
              "latitude": 41.5281,
              "longitude": 23.0609,
              "postCodes": [
                "2875"
              ]
            },
            {
              "id": "31317",
              "name": "Зойчене",
              "type": "с.",
              "townHall": "Зойчене",
              "phoneCode": "",
              "latitude": 41.4576,
              "longitude": 23.0191,
              "postCodes": [
                "2882"
              ]
            },
            {
              "id": "32086",
              "name": "Иваново",
              "type": "с.",
              "townHall": "Крънджилица",
              "phoneCode": "",
              "latitude": 41.533,
              "longitude": 23.0686,
              "postCodes": [
                "2875"
              ]
            },
            {
              "id": "35081",
              "name": "Кавракирово",
              "type": "с.",
              "townHall": "Кавракирово",
              "phoneCode": "07427",
              "latitude": 41.4351,
              "longitude": 23.166,
              "postCodes": [
                "2889"
              ]
            },
            {
              "id": "35688",
              "name": "Камена",
              "type": "с.",
              "townHall": "Камена",
              "phoneCode": "07423",
              "latitude": 41.3641,
              "longitude": 23.0707,
              "postCodes": [
                "2878"
              ]
            },
            {
              "id": "36083",
              "name": "Капатово",
              "type": "с.",
              "townHall": "Капатово",
              "phoneCode": "074201",
              "latitude": 41.4631,
              "longitude": 23.3571,
              "postCodes": [
                "2872"
              ]
            },
            {
              "id": "37143",
              "name": "Кладенци",
              "type": "с.",
              "townHall": "Струмешница",
              "phoneCode": "",
              "latitude": 41.4241,
              "longitude": 23.0412,
              "postCodes": [
                "2895"
              ]
            },
            {
              "id": "37349",
              "name": "Ключ",
              "type": "с.",
              "townHall": "Ключ",
              "phoneCode": "074202",
              "latitude": 41.364,
              "longitude": 23.0172,
              "postCodes": [
                "2899"
              ]
            },
            {
              "id": "37989",
              "name": "Коларово",
              "type": "с.",
              "townHall": "Коларово",
              "phoneCode": "07423",
              "latitude": 41.3649,
              "longitude": 23.1096,
              "postCodes": [
                "2880"
              ]
            },
            {
              "id": "39935",
              "name": "Кромидово",
              "type": "с.",
              "townHall": "Кромидово",
              "phoneCode": "074201",
              "latitude": 41.4573,
              "longitude": 23.3637,
              "postCodes": [
                "2871"
              ]
            },
            {
              "id": "40302",
              "name": "Крънджилица",
              "type": "с.",
              "townHall": "Крънджилица",
              "phoneCode": "07424",
              "latitude": 41.5395,
              "longitude": 23.0576,
              "postCodes": [
                "2875"
              ]
            },
            {
              "id": "40508",
              "name": "Кукурахцево",
              "type": "с.",
              "townHall": "Кукурахцево",
              "phoneCode": "",
              "latitude": 41.4696,
              "longitude": 22.9958,
              "postCodes": [
                "2882"
              ]
            },
            {
              "id": "40539",
              "name": "Кулата",
              "type": "с.",
              "townHall": "Кулата",
              "phoneCode": "07425",
              "latitude": 41.3876,
              "longitude": 23.3633,
              "postCodes": [
                "2868"
              ]
            },
            {
              "id": "40912",
              "name": "Кърналово",
              "type": "с.",
              "townHall": "Кърналово",
              "phoneCode": "07424",
              "latitude": 41.4622,
              "longitude": 23.2208,
              "postCodes": [
                "2860"
              ]
            },
            {
              "id": "47189",
              "name": "Марикостиново",
              "type": "с.",
              "townHall": "Марикостиново",
              "phoneCode": "07426",
              "latitude": 41.4314,
              "longitude": 23.3335,
              "postCodes": [
                "2870"
              ]
            },
            {
              "id": "47247",
              "name": "Марино поле",
              "type": "с.",
              "townHall": "Марино поле",
              "phoneCode": "07425",
              "latitude": 41.4132,
              "longitude": 23.3487,
              "postCodes": [
                "2867"
              ]
            },
            {
              "id": "47799",
              "name": "Мендово",
              "type": "с.",
              "townHall": "Мендово",
              "phoneCode": "07428",
              "latitude": 41.4205,
              "longitude": 23.1183,
              "postCodes": [
                "2893"
              ]
            },
            {
              "id": "48458",
              "name": "Митино",
              "type": "с.",
              "townHall": "Митино",
              "phoneCode": "0745",
              "latitude": 41.4306,
              "longitude": 23.2532,
              "postCodes": [
                "2857"
              ]
            },
            {
              "id": "48578",
              "name": "Михнево",
              "type": "с.",
              "townHall": "Михнево",
              "phoneCode": "07424",
              "latitude": 41.4584,
              "longitude": 23.192,
              "postCodes": [
                "2862"
              ]
            },
            {
              "id": "52091",
              "name": "Ново Кономлади",
              "type": "с.",
              "townHall": "Ново Кономлади",
              "phoneCode": "074201",
              "latitude": 41.4545,
              "longitude": 23.3314,
              "postCodes": [
                "2874"
              ]
            },
            {
              "id": "56126",
              "name": "Петрич",
              "type": "гр.",
              "townHall": "Петрич",
              "phoneCode": "0745",
              "latitude": 41.3981,
              "longitude": 23.2067,
              "postCodes": [
                "2850"
              ]
            },
            {
              "id": "58061",
              "name": "Право бърдо",
              "type": "с.",
              "townHall": "Право бърдо",
              "phoneCode": "07427",
              "latitude": 41.4379,
              "longitude": 23.0836,
              "postCodes": [
                "2894"
              ]
            },
            {
              "id": "59077",
              "name": "Първомай",
              "type": "с.",
              "townHall": "Първомай",
              "phoneCode": "07427",
              "latitude": 41.399,
              "longitude": 23.1398,
              "postCodes": [
                "2890"
              ]
            },
            {
              "id": "62623",
              "name": "Рибник",
              "type": "с.",
              "townHall": "Рибник",
              "phoneCode": "07424",
              "latitude": 41.487,
              "longitude": 23.2557,
              "postCodes": [
                "2864"
              ]
            },
            {
              "id": "49312",
              "name": "Рупите",
              "type": "с.",
              "townHall": "Рупите",
              "phoneCode": "074203",
              "latitude": 41.4415,
              "longitude": 23.2408,
              "postCodes": [
                "2863"
              ]
            },
            {
              "id": "63542",
              "name": "Ръждак",
              "type": "с.",
              "townHall": "Ръждак",
              "phoneCode": "0745",
              "latitude": 41.4013,
              "longitude": 23.2403,
              "postCodes": [
                "2856"
              ]
            },
            {
              "id": "65288",
              "name": "Самуилова крепост",
              "type": "с.",
              "townHall": "Струмешница",
              "phoneCode": "",
              "latitude": 41.3947,
              "longitude": 23.029,
              "postCodes": [
                "2895"
              ]
            },
            {
              "id": "65293",
              "name": "Самуилово",
              "type": "с.",
              "townHall": "Самуилово",
              "phoneCode": "07423",
              "latitude": 41.3721,
              "longitude": 23.0885,
              "postCodes": [
                "2879"
              ]
            },
            {
              "id": "66901",
              "name": "Скрът",
              "type": "с.",
              "townHall": "Скрът",
              "phoneCode": "07428",
              "latitude": 41.3648,
              "longitude": 22.996,
              "postCodes": [
                "2879"
              ]
            },
            {
              "id": "69119",
              "name": "Старчево",
              "type": "с.",
              "townHall": "Старчево",
              "phoneCode": "07424",
              "latitude": 41.4725,
              "longitude": 23.2321,
              "postCodes": [
                "2861"
              ]
            },
            {
              "id": "69941",
              "name": "Струмешница",
              "type": "с.",
              "townHall": "Струмешница",
              "phoneCode": "074205",
              "latitude": 41.395,
              "longitude": 23.0447,
              "postCodes": [
                "2895"
              ]
            },
            {
              "id": "72672",
              "name": "Тонско дабе",
              "type": "с.",
              "townHall": "Яково",
              "phoneCode": "",
              "latitude": 41.5015,
              "longitude": 23.1308,
              "postCodes": [
                "2875"
              ]
            },
            {
              "id": "72744",
              "name": "Тополница",
              "type": "с.",
              "townHall": "Тополница",
              "phoneCode": "07422",
              "latitude": 41.4046,
              "longitude": 23.3232,
              "postCodes": [
                "2858"
              ]
            },
            {
              "id": "81788",
              "name": "Чурилово",
              "type": "с.",
              "townHall": "Чурилово",
              "phoneCode": "",
              "latitude": 41.4604,
              "longitude": 22.9992,
              "postCodes": [
                "2885"
              ]
            },
            {
              "id": "81791",
              "name": "Чуричени",
              "type": "с.",
              "townHall": "Чуричени",
              "phoneCode": "074206",
              "latitude": 41.4559,
              "longitude": 23.1263,
              "postCodes": [
                "2891"
              ]
            },
            {
              "id": "81832",
              "name": "Чучулигово",
              "type": "с.",
              "townHall": "Чучулигово",
              "phoneCode": "07425",
              "latitude": 41.403,
              "longitude": 23.3602,
              "postCodes": [
                "2865"
              ]
            },
            {
              "id": "87134",
              "name": "Яворница",
              "type": "с.",
              "townHall": "Яворница",
              "phoneCode": "074202",
              "latitude": 41.3643,
              "longitude": 23.0488,
              "postCodes": [
                "2896"
              ]
            },
            {
              "id": "87312",
              "name": "Яково",
              "type": "с.",
              "townHall": "Яково",
              "phoneCode": "07424",
              "latitude": 41.5155,
              "longitude": 23.1397,
              "postCodes": [
                "2816"
              ]
            }
          ]
        },
        {
          "name": "Разлог",
          "towns": [
            {
              "id": "2693",
              "name": "Баня",
              "type": "с.",
              "townHall": "Баня",
              "phoneCode": "074445",
              "latitude": 42.5535,
              "longitude": 24.8318,
              "postCodes": [
                "2778"
              ]
            },
            {
              "id": "2960",
              "name": "Бачево",
              "type": "с.",
              "townHall": "Бачево",
              "phoneCode": "074448",
              "latitude": 41.9202,
              "longitude": 23.453,
              "postCodes": [
                "2769"
              ]
            },
            {
              "id": "15326",
              "name": "Годлево",
              "type": "с.",
              "townHall": "Годлево",
              "phoneCode": "074402",
              "latitude": 41.9292,
              "longitude": 23.4784,
              "postCodes": [
                "2768"
              ]
            },
            {
              "id": "16754",
              "name": "Горно Драглище",
              "type": "с.",
              "townHall": "Горно Драглище",
              "phoneCode": "074401",
              "latitude": 41.9468,
              "longitude": 23.5093,
              "postCodes": [
                "2797"
              ]
            },
            {
              "id": "21748",
              "name": "Добърско",
              "type": "с.",
              "townHall": "Добърско",
              "phoneCode": "074406",
              "latitude": 41.9693,
              "longitude": 23.4797,
              "postCodes": [
                "2799"
              ]
            },
            {
              "id": "22602",
              "name": "Долно Драглище",
              "type": "с.",
              "townHall": "Долно Драглище",
              "phoneCode": "074403",
              "latitude": 41.9343,
              "longitude": 23.5144,
              "postCodes": [
                "2798"
              ]
            },
            {
              "id": "61813",
              "name": "Разлог",
              "type": "гр.",
              "townHall": "Разлог",
              "phoneCode": "0747",
              "latitude": 41.886,
              "longitude": 23.4628,
              "postCodes": [
                "2760"
              ]
            }
          ]
        },
        {
          "name": "Сандански",
          "towns": [
            {
              "id": "3335",
              "name": "Белевехчево",
              "type": "с.",
              "townHall": "Дебрене",
              "phoneCode": "0746",
              "latitude": 41.566,
              "longitude": 23.309,
              "postCodes": [
                "2800"
              ]
            },
            {
              "id": "3784",
              "name": "Бельово",
              "type": "с.",
              "townHall": "Бельово",
              "phoneCode": "074388",
              "latitude": 41.4805,
              "longitude": 23.5501,
              "postCodes": [
                "2824"
              ]
            },
            {
              "id": "4933",
              "name": "Бождово",
              "type": "с.",
              "townHall": "Малки Цалим",
              "phoneCode": "0746",
              "latitude": 41.6008,
              "longitude": 23.3605,
              "postCodes": [
                "2811"
              ]
            },
            {
              "id": "11168",
              "name": "Виногради",
              "type": "с.",
              "townHall": "Виногради",
              "phoneCode": "074323",
              "latitude": 41.4974,
              "longitude": 23.3838,
              "postCodes": [
                "2822"
              ]
            },
            {
              "id": "11315",
              "name": "Вихрен",
              "type": "с.",
              "townHall": "Малки Цалим",
              "phoneCode": "",
              "latitude": 41.7672,
              "longitude": 23.3989,
              "postCodes": [
                "2800"
              ]
            },
            {
              "id": "12200",
              "name": "Враня",
              "type": "с.",
              "townHall": "Враня",
              "phoneCode": "07438",
              "latitude": 42.6399,
              "longitude": 23.4322,
              "postCodes": [
                "2830"
              ]
            },
            {
              "id": "12471",
              "name": "Вълково",
              "type": "с.",
              "townHall": "Вълково",
              "phoneCode": "074324",
              "latitude": 41.578,
              "longitude": 23.222,
              "postCodes": [
                "2807"
              ]
            },
            {
              "id": "15549",
              "name": "Голем Цалим",
              "type": "с.",
              "townHall": "Малки Цалим",
              "phoneCode": "0746",
              "latitude": 41.6079,
              "longitude": 23.3363,
              "postCodes": [
                "2800"
              ]
            },
            {
              "id": "15583",
              "name": "Голешово",
              "type": "с.",
              "townHall": "Голешово",
              "phoneCode": "0746",
              "latitude": 41.4325,
              "longitude": 23.5908,
              "postCodes": [
                "2818"
              ]
            },
            {
              "id": "16403",
              "name": "Горна Сушица",
              "type": "с.",
              "townHall": "Горна Сушица",
              "phoneCode": "07435",
              "latitude": 41.5537,
              "longitude": 23.3877,
              "postCodes": [
                "2811"
              ]
            },
            {
              "id": "16969",
              "name": "Горно Спанчево",
              "type": "с.",
              "townHall": "Горно Спанчево",
              "phoneCode": "074388",
              "latitude": 41.5024,
              "longitude": 23.5018,
              "postCodes": [
                "2824"
              ]
            },
            {
              "id": "20105",
              "name": "Дамяница",
              "type": "с.",
              "townHall": "Дамяница",
              "phoneCode": "07430",
              "latitude": 41.5114,
              "longitude": 23.2664,
              "postCodes": [
                "2813"
              ]
            },
            {
              "id": "20345",
              "name": "Дебрене",
              "type": "с.",
              "townHall": "Дебрене",
              "phoneCode": "0746",
              "latitude": 41.5771,
              "longitude": 23.3143,
              "postCodes": [
                "2803"
              ]
            },
            {
              "id": "20780",
              "name": "Джигурово",
              "type": "с.",
              "townHall": "Джигурово",
              "phoneCode": "0746",
              "latitude": 41.5602,
              "longitude": 23.3119,
              "postCodes": [
                "2812"
              ]
            },
            {
              "id": "21909",
              "name": "Долени",
              "type": "с.",
              "townHall": "Сугарево",
              "phoneCode": "",
              "latitude": 41.5726,
              "longitude": 23.4133,
              "postCodes": [
                "2887"
              ]
            },
            {
              "id": "31139",
              "name": "Златолист",
              "type": "с.",
              "townHall": "Златолист",
              "phoneCode": "07438",
              "latitude": 41.4947,
              "longitude": 23.4204,
              "postCodes": [
                "2830"
              ]
            },
            {
              "id": "20910",
              "name": "Зорница",
              "type": "с.",
              "townHall": "Зорница",
              "phoneCode": "074323",
              "latitude": 42.3847,
              "longitude": 26.9289,
              "postCodes": [
                "2821"
              ]
            },
            {
              "id": "35362",
              "name": "Калиманци",
              "type": "с.",
              "townHall": "Калиманци",
              "phoneCode": "07438",
              "latitude": 43.2775,
              "longitude": 27.7234,
              "postCodes": [
                "2832"
              ]
            },
            {
              "id": "36693",
              "name": "Катунци",
              "type": "с.",
              "townHall": "Катунци",
              "phoneCode": "07438",
              "latitude": 41.4443,
              "longitude": 23.4332,
              "postCodes": [
                "2830"
              ]
            },
            {
              "id": "36734",
              "name": "Кашина",
              "type": "с.",
              "townHall": "Рожен",
              "phoneCode": "07437",
              "latitude": 41.5468,
              "longitude": 23.4686,
              "postCodes": [
                "2820"
              ]
            },
            {
              "id": "37486",
              "name": "Ковачево",
              "type": "с.",
              "townHall": "Ковачево",
              "phoneCode": "074388",
              "latitude": 41.4979,
              "longitude": 23.4823,
              "postCodes": [
                "2824"
              ]
            },
            {
              "id": "40378",
              "name": "Кръстилци",
              "type": "с.",
              "townHall": "Кръстилци",
              "phoneCode": "0746",
              "latitude": 41.5515,
              "longitude": 23.2005,
              "postCodes": [
                "2805"
              ]
            },
            {
              "id": "40926",
              "name": "Кърланово",
              "type": "с.",
              "townHall": "Кърланово",
              "phoneCode": "07437",
              "latitude": 41.5442,
              "longitude": 23.4169,
              "postCodes": [
                "2820"
              ]
            },
            {
              "id": "43030",
              "name": "Ладарево",
              "type": "с.",
              "townHall": "Ладарево",
              "phoneCode": "07435",
              "latitude": 41.5512,
              "longitude": 23.3431,
              "postCodes": [
                "2811"
              ]
            },
            {
              "id": "43150",
              "name": "Ласкарево",
              "type": "с.",
              "townHall": "Ласкарево",
              "phoneCode": "07435",
              "latitude": 41.5444,
              "longitude": 23.3331,
              "postCodes": [
                "2811"
              ]
            },
            {
              "id": "43181",
              "name": "Лебница",
              "type": "с.",
              "townHall": "Лебница",
              "phoneCode": "074324",
              "latitude": 41.5219,
              "longitude": 23.2422,
              "postCodes": [
                "2866"
              ]
            },
            {
              "id": "43243",
              "name": "Левуново",
              "type": "с.",
              "townHall": "Левуново",
              "phoneCode": "07436",
              "latitude": 41.4872,
              "longitude": 23.3055,
              "postCodes": [
                "2817"
              ]
            },
            {
              "id": "43503",
              "name": "Лехово",
              "type": "с.",
              "townHall": "Лехово",
              "phoneCode": "",
              "latitude": 41.4102,
              "longitude": 23.4868,
              "postCodes": [
                "2816"
              ]
            },
            {
              "id": "43565",
              "name": "Лешница",
              "type": "с.",
              "townHall": "Лешница",
              "phoneCode": "07431",
              "latitude": 43.0057,
              "longitude": 24.7011,
              "postCodes": [
                "2808"
              ]
            },
            {
              "id": "43699",
              "name": "Лиляново",
              "type": "с.",
              "townHall": "Лиляново",
              "phoneCode": "074325",
              "latitude": 41.6164,
              "longitude": 23.3164,
              "postCodes": [
                "2809"
              ]
            },
            {
              "id": "44121",
              "name": "Лозеница",
              "type": "с.",
              "townHall": "Лозеница",
              "phoneCode": "074323",
              "latitude": 41.5044,
              "longitude": 23.3724,
              "postCodes": [
                "2821"
              ]
            },
            {
              "id": "44625",
              "name": "Любовище",
              "type": "с.",
              "townHall": "Рожен",
              "phoneCode": "07437",
              "latitude": 41.5273,
              "longitude": 23.4425,
              "postCodes": [
                "2880"
              ]
            },
            {
              "id": "44639",
              "name": "Любовка",
              "type": "с.",
              "townHall": "Любовка",
              "phoneCode": "07435",
              "latitude": 41.5787,
              "longitude": 23.3644,
              "postCodes": [
                "2811"
              ]
            },
            {
              "id": "46526",
              "name": "Малки Цалим",
              "type": "с.",
              "townHall": "Малки Цалим",
              "phoneCode": "",
              "latitude": 41.6018,
              "longitude": 23.3472,
              "postCodes": [
                "2800"
              ]
            },
            {
              "id": "47754",
              "name": "Мелник",
              "type": "гр.",
              "townHall": "Мелник",
              "phoneCode": "07437",
              "latitude": 41.5246,
              "longitude": 23.3915,
              "postCodes": [
                "2820"
              ]
            },
            {
              "id": "52074",
              "name": "Ново Делчево",
              "type": "с.",
              "townHall": "Ново Делчево",
              "phoneCode": "074327",
              "latitude": 41.5064,
              "longitude": 23.2838,
              "postCodes": [
                "2814"
              ]
            },
            {
              "id": "52307",
              "name": "Ново Ходжово",
              "type": "с.",
              "townHall": "Ново Ходжово",
              "phoneCode": "07438",
              "latitude": 41.4074,
              "longitude": 23.3994,
              "postCodes": [
                "2831"
              ]
            },
            {
              "id": "56174",
              "name": "Петрово",
              "type": "с.",
              "townHall": "Петрово",
              "phoneCode": "074322",
              "latitude": 48.3349,
              "longitude": 33.2705,
              "postCodes": [
                "2815"
              ]
            },
            {
              "id": "56352",
              "name": "Пиперица",
              "type": "с.",
              "townHall": "Пиперица",
              "phoneCode": "07438",
              "latitude": 41.4109,
              "longitude": 23.4393,
              "postCodes": [
                "2831"
              ]
            },
            {
              "id": "56410",
              "name": "Пирин",
              "type": "с.",
              "townHall": "Пирин",
              "phoneCode": "074386",
              "latitude": 41.6209,
              "longitude": 23.5504,
              "postCodes": [
                "2823"
              ]
            },
            {
              "id": "56839",
              "name": "Плоски",
              "type": "с.",
              "townHall": "Плоски",
              "phoneCode": "07439",
              "latitude": 41.6449,
              "longitude": 23.2667,
              "postCodes": [
                "2810"
              ]
            },
            {
              "id": "57176",
              "name": "Поленица",
              "type": "с.",
              "townHall": "Поленица",
              "phoneCode": "07431",
              "latitude": 41.5659,
              "longitude": 23.2975,
              "postCodes": [
                "2804"
              ]
            },
            {
              "id": "62918",
              "name": "Рожен",
              "type": "с.",
              "townHall": "Рожен",
              "phoneCode": "07437",
              "latitude": 41.5346,
              "longitude": 23.4335,
              "postCodes": [
                "2820"
              ]
            },
            {
              "id": "65334",
              "name": "Сандански",
              "type": "гр.",
              "townHall": "Сандански",
              "phoneCode": "0746",
              "latitude": 41.5678,
              "longitude": 23.2804,
              "postCodes": [
                "2800"
              ]
            },
            {
              "id": "66785",
              "name": "Склаве",
              "type": "с.",
              "townHall": "Склаве",
              "phoneCode": "07435",
              "latitude": 41.5228,
              "longitude": 23.3201,
              "postCodes": [
                "2811"
              ]
            },
            {
              "id": "68223",
              "name": "Спатово",
              "type": "с.",
              "townHall": "Спатово",
              "phoneCode": "07435",
              "latitude": 41.5081,
              "longitude": 23.325,
              "postCodes": [
                "2811"
              ]
            },
            {
              "id": "69290",
              "name": "Стожа",
              "type": "с.",
              "townHall": "Лиляново",
              "phoneCode": "",
              "latitude": 41.6195,
              "longitude": 23.3208,
              "postCodes": [
                "2800"
              ]
            },
            {
              "id": "69938",
              "name": "Струма",
              "type": "с.",
              "townHall": "Струма",
              "phoneCode": "074324",
              "latitude": 41.7155,
              "longitude": 23.263,
              "postCodes": [
                "2806"
              ]
            },
            {
              "id": "70189",
              "name": "Сугарево",
              "type": "с.",
              "townHall": "Сугарево",
              "phoneCode": "07437",
              "latitude": 41.5612,
              "longitude": 23.4273,
              "postCodes": [
                "2820"
              ]
            },
            {
              "id": "77361",
              "name": "Хотово",
              "type": "с.",
              "townHall": "Хотово",
              "phoneCode": "07435",
              "latitude": 41.4991,
              "longitude": 23.3361,
              "postCodes": [
                "2821"
              ]
            },
            {
              "id": "77414",
              "name": "Храсна",
              "type": "с.",
              "townHall": "Бельово",
              "phoneCode": "074388",
              "latitude": 41.4883,
              "longitude": 23.5331,
              "postCodes": [
                "2824"
              ]
            },
            {
              "id": "77565",
              "name": "Хърсово",
              "type": "с.",
              "townHall": "Хърсово",
              "phoneCode": "074321",
              "latitude": 41.461,
              "longitude": 23.383,
              "postCodes": [
                "2819"
              ]
            },
            {
              "id": "80618",
              "name": "Черешница",
              "type": "с.",
              "townHall": "Черешница",
              "phoneCode": "074388",
              "latitude": 41.4952,
              "longitude": 23.4581,
              "postCodes": [
                "2824"
              ]
            },
            {
              "id": "87446",
              "name": "Яново",
              "type": "с.",
              "townHall": "Яново",
              "phoneCode": "074322",
              "latitude": 41.4384,
              "longitude": 23.4862,
              "postCodes": [
                "2816"
              ]
            }
          ]
        },
        {
          "name": "Сатовча",
          "towns": [
            {
              "id": "4707",
              "name": "Боголин",
              "type": "с.",
              "townHall": "Боголин",
              "phoneCode": "07547",
              "latitude": 41.5399,
              "longitude": 23.9571,
              "postCodes": [
                "2931"
              ]
            },
            {
              "id": "10046",
              "name": "Ваклиново",
              "type": "с.",
              "townHall": "Ваклиново",
              "phoneCode": "07545",
              "latitude": 41.5956,
              "longitude": 24.0634,
              "postCodes": [
                "2957"
              ]
            },
            {
              "id": "12499",
              "name": "Вълкосел",
              "type": "с.",
              "townHall": "Вълкосел",
              "phoneCode": "07547",
              "latitude": 41.5289,
              "longitude": 23.9854,
              "postCodes": [
                "2930"
              ]
            },
            {
              "id": "15312",
              "name": "Годешево",
              "type": "с.",
              "townHall": "Годешево",
              "phoneCode": "07548",
              "latitude": 41.475,
              "longitude": 24.0519,
              "postCodes": [
                "2938"
              ]
            },
            {
              "id": "21868",
              "name": "Долен",
              "type": "с.",
              "townHall": "Долен",
              "phoneCode": "07549",
              "latitude": 41.6237,
              "longitude": 23.9314,
              "postCodes": [
                "2968"
              ]
            },
            {
              "id": "29372",
              "name": "Жижево",
              "type": "с.",
              "townHall": "Жижево",
              "phoneCode": "07545",
              "latitude": 41.5511,
              "longitude": 24.0293,
              "postCodes": [
                "2956"
              ]
            },
            {
              "id": "39089",
              "name": "Кочан",
              "type": "с.",
              "townHall": "Кочан",
              "phoneCode": "07545",
              "latitude": 41.5869,
              "longitude": 24.0279,
              "postCodes": [
                "2955"
              ]
            },
            {
              "id": "39726",
              "name": "Крибул",
              "type": "с.",
              "townHall": "Крибул",
              "phoneCode": "07541",
              "latitude": 41.5718,
              "longitude": 23.9468,
              "postCodes": [
                "2951"
              ]
            },
            {
              "id": "54225",
              "name": "Осина",
              "type": "с.",
              "townHall": "Осина",
              "phoneCode": "07544",
              "latitude": 41.6311,
              "longitude": 24.0804,
              "postCodes": [
                "2953"
              ]
            },
            {
              "id": "56740",
              "name": "Плетена",
              "type": "с.",
              "townHall": "Плетена",
              "phoneCode": "07541",
              "latitude": 41.6406,
              "longitude": 23.9561,
              "postCodes": [
                "2954"
              ]
            },
            {
              "id": "65440",
              "name": "Сатовча",
              "type": "с.",
              "townHall": "Сатовча",
              "phoneCode": "07541",
              "latitude": 41.6195,
              "longitude": 23.976,
              "postCodes": [
                "2950"
              ]
            },
            {
              "id": "67270",
              "name": "Слащен",
              "type": "с.",
              "townHall": "Слащен",
              "phoneCode": "07546",
              "latitude": 41.4976,
              "longitude": 24.0182,
              "postCodes": [
                "2937"
              ]
            },
            {
              "id": "73519",
              "name": "Туховища",
              "type": "с.",
              "townHall": "Туховища",
              "phoneCode": "07548",
              "latitude": 41.4985,
              "longitude": 24.0441,
              "postCodes": [
                "2939"
              ]
            },
            {
              "id": "76203",
              "name": "Фъргово",
              "type": "с.",
              "townHall": "Фъргово",
              "phoneCode": "07545",
              "latitude": 41.5763,
              "longitude": 23.9964,
              "postCodes": [
                "2952"
              ]
            }
          ]
        },
        {
          "name": "Симитли",
          "towns": [
            {
              "id": "6238",
              "name": "Брежани",
              "type": "с.",
              "townHall": "Брежани",
              "phoneCode": "0748",
              "latitude": 41.863,
              "longitude": 23.1864,
              "postCodes": [
                "2750"
              ]
            },
            {
              "id": "6522",
              "name": "Брестово",
              "type": "с.",
              "townHall": "Симитли",
              "phoneCode": "",
              "latitude": 41.8283,
              "longitude": 23.0038,
              "postCodes": [
                "2735"
              ]
            },
            {
              "id": "16870",
              "name": "Горно Осеново",
              "type": "с.",
              "townHall": "Долно Осеново",
              "phoneCode": "0748",
              "latitude": 41.9926,
              "longitude": 23.2649,
              "postCodes": [
                "2756"
              ]
            },
            {
              "id": "17405",
              "name": "Градево",
              "type": "с.",
              "townHall": "Градево",
              "phoneCode": "0748",
              "latitude": 41.9193,
              "longitude": 23.196,
              "postCodes": [
                "2755"
              ]
            },
            {
              "id": "21837",
              "name": "Докатичево",
              "type": "с.",
              "townHall": "Симитли",
              "phoneCode": "",
              "latitude": 41.8814,
              "longitude": 23.0626,
              "postCodes": [
                "2734"
              ]
            },
            {
              "id": "22753",
              "name": "Долно Осеново",
              "type": "с.",
              "townHall": "Долно Осеново",
              "phoneCode": "0748",
              "latitude": 41.9544,
              "longitude": 23.2413,
              "postCodes": [
                "2757"
              ]
            },
            {
              "id": "29146",
              "name": "Железница",
              "type": "с.",
              "townHall": "Железница",
              "phoneCode": "0748",
              "latitude": 41.9228,
              "longitude": 23.111,
              "postCodes": [
                "2732"
              ]
            },
            {
              "id": "40052",
              "name": "Крупник",
              "type": "с.",
              "townHall": "Крупник",
              "phoneCode": "0748",
              "latitude": 41.8505,
              "longitude": 23.1168,
              "postCodes": [
                "2740"
              ]
            },
            {
              "id": "48012",
              "name": "Мечкул",
              "type": "с.",
              "townHall": "Сенокос",
              "phoneCode": "0748",
              "latitude": 41.8243,
              "longitude": 23.2018,
              "postCodes": [
                "2754"
              ]
            },
            {
              "id": "57162",
              "name": "Полена",
              "type": "с.",
              "townHall": "Полена",
              "phoneCode": "0748",
              "latitude": 41.8445,
              "longitude": 23.1047,
              "postCodes": [
                "2758"
              ]
            },
            {
              "id": "57203",
              "name": "Полето",
              "type": "с.",
              "townHall": "Полето",
              "phoneCode": "0748",
              "latitude": 41.8614,
              "longitude": 23.1476,
              "postCodes": [
                "2751"
              ]
            },
            {
              "id": "61978",
              "name": "Ракитна",
              "type": "с.",
              "townHall": "Ракитна",
              "phoneCode": "0748",
              "latitude": 41.8333,
              "longitude": 23.2,
              "postCodes": [
                "2753"
              ]
            },
            {
              "id": "66247",
              "name": "Сенокос",
              "type": "с.",
              "townHall": "Сенокос",
              "phoneCode": "0748",
              "latitude": 41.8316,
              "longitude": 23.2325,
              "postCodes": [
                "2752"
              ]
            },
            {
              "id": "66460",
              "name": "Симитли",
              "type": "гр.",
              "townHall": "Симитли",
              "phoneCode": "0748",
              "latitude": 41.8897,
              "longitude": 23.106,
              "postCodes": [
                "2730"
              ]
            },
            {
              "id": "70370",
              "name": "Сухострел",
              "type": "с.",
              "townHall": "Симитли",
              "phoneCode": "0748",
              "latitude": 41.8398,
              "longitude": 22.9644,
              "postCodes": [
                "2736"
              ]
            },
            {
              "id": "35105",
              "name": "Сушица",
              "type": "с.",
              "townHall": "Сушица",
              "phoneCode": "0748",
              "latitude": 41.817,
              "longitude": 23.0577,
              "postCodes": [
                "2759"
              ]
            },
            {
              "id": "73184",
              "name": "Тросково",
              "type": "с.",
              "townHall": "Симитли",
              "phoneCode": "0748",
              "latitude": 42.0253,
              "longitude": 22.9315,
              "postCodes": [
                "2733"
              ]
            },
            {
              "id": "81013",
              "name": "Черниче",
              "type": "с.",
              "townHall": "Черниче",
              "phoneCode": "0748",
              "latitude": 41.8596,
              "longitude": 23.1277,
              "postCodes": [
                "2741"
              ]
            }
          ]
        },
        {
          "name": "Струмяни",
          "towns": [
            {
              "id": "10608",
              "name": "Велющец",
              "type": "с.",
              "townHall": "Игралище",
              "phoneCode": "074345",
              "latitude": 41.5881,
              "longitude": 23.1415,
              "postCodes": [
                "2849"
              ]
            },
            {
              "id": "12142",
              "name": "Вракуповица",
              "type": "с.",
              "townHall": "Вракуповица",
              "phoneCode": "074346",
              "latitude": 41.662,
              "longitude": 23.089,
              "postCodes": [
                "2834"
              ]
            },
            {
              "id": "16033",
              "name": "Гореме",
              "type": "с.",
              "townHall": "Гореме",
              "phoneCode": "074343",
              "latitude": 41.6411,
              "longitude": 23.0914,
              "postCodes": [
                "2834"
              ]
            },
            {
              "id": "16273",
              "name": "Горна Крушица",
              "type": "с.",
              "townHall": "Горна Крушица",
              "phoneCode": "074341",
              "latitude": 41.668,
              "longitude": 23.1646,
              "postCodes": [
                "2827"
              ]
            },
            {
              "id": "16362",
              "name": "Горна Рибница",
              "type": "с.",
              "townHall": "Цапарево",
              "phoneCode": "074344",
              "latitude": 41.6439,
              "longitude": 23.0353,
              "postCodes": [
                "2836"
              ]
            },
            {
              "id": "21467",
              "name": "Добри лаки",
              "type": "с.",
              "townHall": "Добри лаки",
              "phoneCode": "074344",
              "latitude": 41.5811,
              "longitude": 22.9948,
              "postCodes": [
                "2838"
              ]
            },
            {
              "id": "23532",
              "name": "Драката",
              "type": "с.",
              "townHall": "Драката",
              "phoneCode": "074341",
              "latitude": 41.6089,
              "longitude": 23.2057,
              "postCodes": [
                "2829"
              ]
            },
            {
              "id": "32322",
              "name": "Игралище",
              "type": "с.",
              "townHall": "Игралище",
              "phoneCode": "07438",
              "latitude": 41.5663,
              "longitude": 23.1242,
              "postCodes": [
                "2848"
              ]
            },
            {
              "id": "32665",
              "name": "Илинденци",
              "type": "с.",
              "townHall": "Илинденци",
              "phoneCode": "074341",
              "latitude": 41.6481,
              "longitude": 23.2298,
              "postCodes": [
                "2833"
              ]
            },
            {
              "id": "35818",
              "name": "Каменица",
              "type": "с.",
              "townHall": "Каменица",
              "phoneCode": "074341",
              "latitude": 41.6503,
              "longitude": 23.1599,
              "postCodes": [
                "2826"
              ]
            },
            {
              "id": "37191",
              "name": "Клепало",
              "type": "с.",
              "townHall": "Клепало",
              "phoneCode": "074344",
              "latitude": 41.6223,
              "longitude": 22.9738,
              "postCodes": [
                "2837"
              ]
            },
            {
              "id": "38056",
              "name": "Колибите",
              "type": "с.",
              "townHall": "Добри лаки",
              "phoneCode": "074344",
              "latitude": 41.5829,
              "longitude": 23.0292,
              "postCodes": [
                "3838"
              ]
            },
            {
              "id": "40957",
              "name": "Кърпелево",
              "type": "с.",
              "townHall": "Кърпелево",
              "phoneCode": "07434",
              "latitude": 41.6424,
              "longitude": 23.1186,
              "postCodes": [
                "2825"
              ]
            },
            {
              "id": "47473",
              "name": "Махалата",
              "type": "с.",
              "townHall": "Махалата",
              "phoneCode": "074345",
              "latitude": 41.5784,
              "longitude": 23.0955,
              "postCodes": [
                "2849"
              ]
            },
            {
              "id": "49686",
              "name": "Микрево",
              "type": "с.",
              "townHall": "Микрево",
              "phoneCode": "",
              "latitude": 41.6228,
              "longitude": 23.1963,
              "postCodes": [
                "2826"
              ]
            },
            {
              "id": "51737",
              "name": "Никудин",
              "type": "с.",
              "townHall": "Никудин",
              "phoneCode": "074345",
              "latitude": 41.5665,
              "longitude": 23.0439,
              "postCodes": [
                "2839"
              ]
            },
            {
              "id": "55227",
              "name": "Палат",
              "type": "с.",
              "townHall": "Палат",
              "phoneCode": "07434",
              "latitude": 41.5909,
              "longitude": 23.1881,
              "postCodes": [
                "2829"
              ]
            },
            {
              "id": "61772",
              "name": "Раздол",
              "type": "с.",
              "townHall": "Раздол",
              "phoneCode": "074347",
              "latitude": 41.6158,
              "longitude": 23.0088,
              "postCodes": [
                "2835"
              ]
            },
            {
              "id": "65930",
              "name": "Седелец",
              "type": "с.",
              "townHall": "Седелец",
              "phoneCode": "074345",
              "latitude": 41.5885,
              "longitude": 23.0961,
              "postCodes": [
                "2834"
              ]
            },
            {
              "id": "69969",
              "name": "Струмяни",
              "type": "с.",
              "townHall": "Струмяни",
              "phoneCode": "07434",
              "latitude": 41.6399,
              "longitude": 23.2014,
              "postCodes": [
                "2825"
              ]
            },
            {
              "id": "78046",
              "name": "Цапарево",
              "type": "с.",
              "townHall": "Цапарево",
              "phoneCode": "074346",
              "latitude": 41.6269,
              "longitude": 23.0998,
              "postCodes": [
                "2834"
              ]
            }
          ]
        },
        {
          "name": "Хаджидимово",
          "towns": [
            {
              "id": "14",
              "name": "Абланица",
              "type": "с.",
              "townHall": "Абланица",
              "phoneCode": "07524",
              "latitude": 41.5378,
              "longitude": 23.9341,
              "postCodes": [
                "2932"
              ]
            },
            {
              "id": "3976",
              "name": "Беслен",
              "type": "с.",
              "townHall": "Беслен",
              "phoneCode": "07523",
              "latitude": 41.4716,
              "longitude": 23.965,
              "postCodes": [
                "2934"
              ]
            },
            {
              "id": "4399",
              "name": "Блатска",
              "type": "с.",
              "townHall": "Блатска",
              "phoneCode": "07528",
              "latitude": 41.5342,
              "longitude": 23.8647,
              "postCodes": [
                "2944"
              ]
            },
            {
              "id": "14341",
              "name": "Гайтаниново",
              "type": "с.",
              "townHall": "Хаджидимово",
              "phoneCode": "075215",
              "latitude": 41.4515,
              "longitude": 23.7142,
              "postCodes": [
                "2924"
              ]
            },
            {
              "id": "32648",
              "name": "Илинден",
              "type": "с.",
              "townHall": "Хаджидимово",
              "phoneCode": "07521",
              "latitude": 41.9882,
              "longitude": 21.6422,
              "postCodes": [
                "2929"
              ]
            },
            {
              "id": "38532",
              "name": "Копривлен",
              "type": "с.",
              "townHall": "Копривлен",
              "phoneCode": "07521",
              "latitude": 41.5197,
              "longitude": 23.7961,
              "postCodes": [
                "2921"
              ]
            },
            {
              "id": "44464",
              "name": "Лъки",
              "type": "с.",
              "townHall": "Хаджидимово",
              "phoneCode": "075215",
              "latitude": 41.833,
              "longitude": 24.8314,
              "postCodes": [
                "2928"
              ]
            },
            {
              "id": "51860",
              "name": "Нова Ловча",
              "type": "с.",
              "townHall": "Хаджидимово",
              "phoneCode": "075214",
              "latitude": 41.4206,
              "longitude": 23.7208,
              "postCodes": [
                "2925"
              ]
            },
            {
              "id": "52101",
              "name": "Ново Лески",
              "type": "с.",
              "townHall": "Ново Лески",
              "phoneCode": "07521",
              "latitude": 41.532,
              "longitude": 23.7786,
              "postCodes": [
                "2923"
              ]
            },
            {
              "id": "55467",
              "name": "Парил",
              "type": "с.",
              "townHall": "Хаджидимово",
              "phoneCode": "075214",
              "latitude": 41.4344,
              "longitude": 23.6821,
              "postCodes": [
                "2926"
              ]
            },
            {
              "id": "56109",
              "name": "Петрелик",
              "type": "с.",
              "townHall": "Хаджидимово",
              "phoneCode": "07528",
              "latitude": 41.4852,
              "longitude": 23.8636,
              "postCodes": [
                "2936"
              ]
            },
            {
              "id": "65108",
              "name": "Садово",
              "type": "с.",
              "townHall": "Садово",
              "phoneCode": "07528",
              "latitude": 41.5053,
              "longitude": 23.8213,
              "postCodes": [
                "2922"
              ]
            },
            {
              "id": "72268",
              "name": "Теплен",
              "type": "с.",
              "townHall": "Хаджидимово",
              "phoneCode": "07528",
              "latitude": 41.4855,
              "longitude": 23.937,
              "postCodes": [
                "2935"
              ]
            },
            {
              "id": "72374",
              "name": "Тешово",
              "type": "с.",
              "townHall": "Хаджидимово",
              "phoneCode": "075214",
              "latitude": 41.4669,
              "longitude": 23.6972,
              "postCodes": [
                "2927"
              ]
            },
            {
              "id": "77058",
              "name": "Хаджидимово",
              "type": "гр.",
              "townHall": "Хаджидимово",
              "phoneCode": "07528",
              "latitude": 41.5166,
              "longitude": 23.853,
              "postCodes": [
                "2933"
              ]
            }
          ]
        },
        {
          "name": "Якоруда",
          "towns": [
            {
              "id": "59",
              "name": "Аврамово",
              "type": "с.",
              "townHall": "Аврамово",
              "phoneCode": "07442",
              "latitude": 42.0333,
              "longitude": 23.6667,
              "postCodes": [
                "2795"
              ]
            },
            {
              "id": "3561",
              "name": "Бел камен",
              "type": "с.",
              "townHall": "Бел камен",
              "phoneCode": "",
              "latitude": 41.65,
              "longitude": 23.7333,
              "postCodes": [
                "2793"
              ]
            },
            {
              "id": "7822",
              "name": "Бунцево",
              "type": "с.",
              "townHall": "Бунцево",
              "phoneCode": "07442",
              "latitude": 42.0018,
              "longitude": 23.7101,
              "postCodes": [
                "2792"
              ]
            },
            {
              "id": "38220",
              "name": "Конарско",
              "type": "с.",
              "townHall": "Конарско",
              "phoneCode": "07442",
              "latitude": 42.0165,
              "longitude": 23.7228,
              "postCodes": [
                "2792"
              ]
            },
            {
              "id": "32603",
              "name": "Смолево",
              "type": "с.",
              "townHall": "Смолево",
              "phoneCode": "07442",
              "latitude": 42.0173,
              "longitude": 23.7628,
              "postCodes": [
                "2794"
              ]
            },
            {
              "id": "81850",
              "name": "Черна Места",
              "type": "с.",
              "townHall": "Черна Места",
              "phoneCode": "07442",
              "latitude": 42.0511,
              "longitude": 23.7291,
              "postCodes": [
                "2790"
              ]
            },
            {
              "id": "86101",
              "name": "Юруково",
              "type": "с.",
              "townHall": "Юруково",
              "phoneCode": "074495",
              "latitude": 41.9728,
              "longitude": 23.6163,
              "postCodes": [
                "2796"
              ]
            },
            {
              "id": "87338",
              "name": "Якоруда",
              "type": "гр.",
              "townHall": "Якоруда",
              "phoneCode": "07442",
              "latitude": 42.0178,
              "longitude": 23.6688,
              "postCodes": [
                "2790"
              ]
            }
          ]
        }
      ]
    },
    {
      "name": "Бургас",
      "municipalities": [
        {
          "name": "Айтос",
          "towns": [
            {
              "id": "151",
              "name": "Айтос",
              "type": "гр.",
              "townHall": "Айтос",
              "phoneCode": "0558",
              "latitude": 42.7031,
              "longitude": 27.2506,
              "postCodes": [
                "8500"
              ]
            },
            {
              "id": "23889",
              "name": "Дрянковец",
              "type": "с.",
              "townHall": "Айтос",
              "phoneCode": "05536",
              "latitude": 42.6873,
              "longitude": 27.3734,
              "postCodes": [
                "8524"
              ]
            },
            {
              "id": "30805",
              "name": "Зетьово",
              "type": "с.",
              "townHall": "Айтос",
              "phoneCode": "0558",
              "latitude": 42.7574,
              "longitude": 27.2265,
              "postCodes": [
                "8517"
              ]
            },
            {
              "id": "36227",
              "name": "Карагеоргиево",
              "type": "с.",
              "townHall": "Карагеоргиево",
              "phoneCode": "05534",
              "latitude": 42.7353,
              "longitude": 27.186,
              "postCodes": [
                "8543"
              ]
            },
            {
              "id": "36381",
              "name": "Караново",
              "type": "с.",
              "townHall": "Караново",
              "phoneCode": "05538",
              "latitude": 42.5127,
              "longitude": 25.9085,
              "postCodes": [
                "8532"
              ]
            },
            {
              "id": "44817",
              "name": "Лясково",
              "type": "с.",
              "townHall": "Айтос",
              "phoneCode": "05535",
              "latitude": 42.7287,
              "longitude": 27.2897,
              "postCodes": [
                "8518"
              ]
            },
            {
              "id": "46440",
              "name": "Малка поляна",
              "type": "с.",
              "townHall": "Айтос",
              "phoneCode": "05538",
              "latitude": 42.6418,
              "longitude": 27.2419,
              "postCodes": [
                "8519"
              ]
            },
            {
              "id": "49477",
              "name": "Мъглен",
              "type": "с.",
              "townHall": "Мъглен",
              "phoneCode": "05538",
              "latitude": 42.7294,
              "longitude": 27.373,
              "postCodes": [
                "8523"
              ]
            },
            {
              "id": "56321",
              "name": "Пещерско",
              "type": "с.",
              "townHall": "Пещерско",
              "phoneCode": "05530",
              "latitude": 42.743,
              "longitude": 27.3472,
              "postCodes": [
                "8525"
              ]
            },
            {
              "id": "56438",
              "name": "Пирне",
              "type": "с.",
              "townHall": "Пирне",
              "phoneCode": "05533",
              "latitude": 42.6778,
              "longitude": 27.1965,
              "postCodes": [
                "8528"
              ]
            },
            {
              "id": "57426",
              "name": "Поляново",
              "type": "с.",
              "townHall": "Айтос",
              "phoneCode": "05534",
              "latitude": 41.9719,
              "longitude": 25.8181,
              "postCodes": [
                "8544"
              ]
            },
            {
              "id": "62013",
              "name": "Раклиново",
              "type": "с.",
              "townHall": "Айтос",
              "phoneCode": "05539",
              "latitude": 42.7653,
              "longitude": 27.0507,
              "postCodes": [
                "8547"
              ]
            },
            {
              "id": "70473",
              "name": "Съдиево",
              "type": "с.",
              "townHall": "Айтос",
              "phoneCode": "05537",
              "latitude": 42.6666,
              "longitude": 27.3201,
              "postCodes": [
                "8522"
              ]
            },
            {
              "id": "72727",
              "name": "Тополица",
              "type": "с.",
              "townHall": "Тополица",
              "phoneCode": "05532",
              "latitude": 42.7347,
              "longitude": 27.1207,
              "postCodes": [
                "8549"
              ]
            },
            {
              "id": "80813",
              "name": "Черна могила",
              "type": "с.",
              "townHall": "Айтос",
              "phoneCode": "05536",
              "latitude": 42.7495,
              "longitude": 27.397,
              "postCodes": [
                "8527"
              ]
            },